{ "_id" : { "$oid" : "59960f9c9fa5cb47312b9fac" }, "address" : "londres", "addressFmt" : "London, UK", "date" : { "$date" : 1503006620855 }, "loc" : { "coordinates" : [ -0.1277583, 51.5073509 ], "type" : "Point" }, "__v" : 0 }
{ "_id" : { "$oid" : "59960fc39fa5cb47312b9fad" }, "address" : "florida", "addressFmt" : "Florida, USA", "date" : { "$date" : 1503006659672 }, "loc" : { "coordinates" : [ -81.5157535, 27.6648274 ], "type" : "Point" }, "__v" : 0 }
{ "_id" : { "$oid" : "5996100b9fa5cb47312b9fae" }, "address" : "torre BBVA argentina", "addressFmt" : "Av. Córdoba 111, C1054AAA CABA, Argentina", "date" : { "$date" : 1503006731116 }, "loc" : { "coordinates" : [ -58.3700249, -34.5979391 ], "type" : "Point" }, "__v" : 0 }
{ "_id" : { "$oid" : "5996101a9fa5cb47312b9faf" }, "address" : "river plate", "addressFmt" : "Av. Pres. Figueroa Alcorta 7597, 1424 CABA, Argentina", "date" : { "$date" : 1503006746473 }, "loc" : { "coordinates" : [ -58.44977489999999, -34.5453062 ], "type" : "Point" }, "__v" : 0 }
{ "_id" : { "$oid" : "599610a29fa5cb47312b9fb0" }, "address" : "catamarca", "addressFmt" : "Catamarca Province, Argentina", "date" : { "$date" : 1503006882318 }, "loc" : { "coordinates" : [ -65.7877209, -28.4715877 ], "type" : "Point" }, "__v" : 0 }
{ "_id" : { "$oid" : "59971ac8dd7dbe4cdb218c54" }, "address" : "cancha de boca", "addressFmt" : "Brandsen 805, 1161 CABA, Argentina", "date" : { "$date" : 1503075016965 }, "loc" : { "coordinates" : [ -58.36475629999999, -34.6356109 ], "type" : "Point" }, "__v" : 0 }
{ "_id" : { "$oid" : "59972df9dd7dbe4cdb218c55" }, "address" : "giza", "addressFmt" : "Giza, Al Omraneyah, Giza Governorate, Egypt", "date" : { "$date" : 1503079929101 }, "loc" : { "coordinates" : [ 31.2088526, 30.0130557 ], "type" : "Point" }, "__v" : 0 }
{ "_id" : { "$oid" : "5997337ddd7dbe4cdb218c56" }, "address" : "puente saavedra", "addressFmt" : "Buenos Aires, Argentina", "date" : { "$date" : 1503081341551 }, "loc" : { "coordinates" : [ -58.47540000000001, -34.5394 ], "type" : "Point" }, "__v" : 0 }
{ "_id" : { "$oid" : "599c8c1d50584d5f5fdadb70" }, "address" : "av. cordoba 111 caba}", "addressFmt" : "Av. Córdoba 111, C1054AAA CABA, Argentina", "date" : { "$date" : 1503431709164 }, "loc" : { "coordinates" : [ -58.3699038, -34.5982944 ], "type" : "Point" }, "__v" : 0 }
{ "_id" : { "$oid" : "599f3d3750584d5f5fdadb71" }, "address" : "maiami beach", "addressFmt" : "Miami Beach, FL, USA", "date" : { "$date" : 1503608119778 }, "loc" : { "coordinates" : [ -80.13004549999999, 25.790654 ], "type" : "Point" }, "__v" : 0 }
{ "_id" : { "$oid" : "59a0735550584d5f5fdadb72" }, "address" : "hon cong", "addressFmt" : "Hong Kong", "date" : { "$date" : 1503687509434 }, "loc" : { "coordinates" : [ 114.109497, 22.396428 ], "type" : "Point" }, "__v" : 0 }
{ "_id" : { "$oid" : "59aca3a150584d5f5fdadb73" }, "address" : "alcorta shopping", "addressFmt" : "Jerónimo Salguero 3172, 1425 CABA, Argentina", "date" : { "$date" : 1504486305105 }, "loc" : { "coordinates" : [ -58.404023, -34.5748226 ], "type" : "Point" }, "__v" : 0 }
{ "_id" : { "$oid" : "59aca3b350584d5f5fdadb74" }, "address" : "alto palermo shopping", "addressFmt" : "Av. Santa Fe 3253, 1091 CABA, Argentina", "date" : { "$date" : 1504486323500 }, "loc" : { "coordinates" : [ -58.410757, -34.588321 ], "type" : "Point" }, "__v" : 0 }
{ "_id" : { "$oid" : "59aca3c350584d5f5fdadb75" }, "address" : "abasto shopping", "addressFmt" : "Av. Corrientes 3246, C1193AAR CABA, Argentina", "date" : { "$date" : 1504486339219 }, "loc" : { "coordinates" : [ -58.4107085, -34.6028742 ], "type" : "Point" }, "__v" : 0 }
{ "_id" : { "$oid" : "59aca42650584d5f5fdadb76" }, "address" : "Córdoba Shopping Center", "addressFmt" : "X5009CMA Córdoba, Cordoba, Argentina", "date" : { "$date" : 1504486438096 }, "loc" : { "coordinates" : [ -64.21548989999999, -31.3806665 ], "type" : "Point" }, "__v" : 0 }
{ "_id" : { "$oid" : "59aca43750584d5f5fdadb77" }, "address" : "bahia blanca plaza shopping", "addressFmt" : "Sarmiento 2153, B8002 Bahía Blanca, Buenos Aires, Argentina", "date" : { "$date" : 1504486455742 }, "loc" : { "coordinates" : [ -62.2439662, -38.6988431 ], "type" : "Point" }, "__v" : 0 }
{ "_id" : { "$oid" : "59acaeea50584d5f5fdadb78" }, "address" : "Estadio Luna Park", "addressFmt" : "Av. Eduardo Madero 470, C1106ACR CABA, Argentina", "date" : { "$date" : 1504489194890 }, "loc" : { "coordinates" : [ -58.36836, -34.602021 ], "type" : "Point" }, "__v" : 0 }
{ "_id" : { "$oid" : "59acb94850584d5f5fdadb7a" }, "address" : "panama", "addressFmt" : "Panama", "date" : { "$date" : 1504491848615 }, "loc" : { "coordinates" : [ -80.782127, 8.537981 ], "type" : "Point" }, "__v" : 0 }
{ "_id" : { "$oid" : "59acb95150584d5f5fdadb7b" }, "address" : "panama", "addressFmt" : "Panama", "date" : { "$date" : 1504491857042 }, "loc" : { "coordinates" : [ -80.782127, 8.537981 ], "type" : "Point" }, "__v" : 0 }
{ "_id" : { "$oid" : "59acbae450584d5f5fdadb7c" }, "address" : "panama", "addressFmt" : "Panama", "date" : { "$date" : 1504492260860 }, "loc" : { "coordinates" : [ -80.782127, 8.537981 ], "type" : "Point" }, "__v" : 0 }
